[
    {
        "id": "0",
        "device_id": "003T1001",
        "name": "新雅大酒店",
        "lat": "31.240928",
        "lng": "121.483557",
        "address": "南京西路719号"
    },
    {
        "id": "16",
        "device_id": "003T2117",
        "name": "华山延安希尔顿",
        "lat": "31.225664",
        "lng": "121.451728",
        "address": "华山路250号"
    },
    {
        "id": "18",
        "device_id": "003T1384",
        "name": "市二医院",
        "lat": "31.21602",
        "lng": "121.51173",
        "address": "多稼路1号"
    },
    {
        "id": "33",
        "device_id": "003T1303",
        "name": "唐家湾(地区)",
        "lat": "31.584569",
        "lng": "121.525977",
        "address": "唐家湾路57号对面"
    },
    {
        "id": "35",
        "device_id": "003T2039",
        "name": "万航渡路661弄(地区)进口",
        "lat": "31.233363",
        "lng": "121.439277",
        "address": "万航渡路661弄左转公用厕所"
    },
    {
        "id": "37",
        "device_id": "003T1368",
        "name": "太阳都市(街坊)",
        "lat": "31.225656",
        "lng": "121.491628",
        "address": "河南南路复兴路口"
    },
    {
        "id": "40",
        "device_id": "003T1263",
        "name": "天天花园徐家汇路538号",
        "lat": "31.21293",
        "lng": "121.4777",
        "address": "徐家汇路530号"
    },
    {
        "id": "41",
        "device_id": "003T1302",
        "name": "先棉祠街",
        "lat": "31.223175",
        "lng": "121.498466",
        "address": "先棉祠街26号"
    },
    {
        "id": "43",
        "device_id": "003T1290",
        "name": "侯家弄",
        "lat": "31.231667",
        "lng": "121.496219",
        "address": "侯家弄"
    },
    {
        "id": "44",
        "device_id": "003T1300",
        "name": "大境路50弄",
        "lat": "31.231507",
        "lng": "121.492532",
        "address": "大境路50弄"
    },
    {
        "id": "48",
        "device_id": "003T1307",
        "name": "厦门路",
        "lat": "31.239205",
        "lng": "121.48884",
        "address": "福建中路195号"
    },
    {
        "id": "49",
        "device_id": "003T1294",
        "name": "河南南路1009号",
        "lat": "31.21885",
        "lng": "121.500536",
        "address": "河南南路1009号"
    },
    {
        "id": "52",
        "device_id": "003T3046",
        "name": "长乐路",
        "lat": "31.226944",
        "lng": "121.465563",
        "address": "长乐路135号"
    },
    {
        "id": "53",
        "device_id": "003T3017",
        "name": "思南路26弄",
        "lat": "31.22533",
        "lng": "121.472155",
        "address": "思南路26弄2号对面"
    },
    {
        "id": "54",
        "device_id": "003T1406",
        "name": "黄浦公园",
        "lat": "31.247586",
        "lng": "121.497051",
        "address": "中山公园路500号"
    },
    {
        "id": "59",
        "device_id": "003T1178",
        "name": "最佳实践区",
        "lat": "31.194224",
        "lng": "121.499045",
        "address": "苗江路望达路（世博园区内）"
    },
    {
        "id": "61",
        "device_id": "003T1183",
        "name": "最佳实践区",
        "lat": "31.210221",
        "lng": "121.500622",
        "address": "龙华南路南车站路"
    },
    {
        "id": "63",
        "device_id": "003T3029",
        "name": "永业公寓",
        "lat": "31.215375",
        "lng": "121.484954",
        "address": "徐家汇路135弄"
    },
    {
        "id": "64",
        "device_id": "003T1129",
        "name": "保屯路",
        "lat": "31.21306",
        "lng": "121.496289",
        "address": "保屯路26号"
    },
    {
        "id": "65",
        "device_id": "003T1408",
        "name": "黄浦新苑",
        "lat": "31.215545",
        "lng": "121.490817",
        "address": "丽园路333号"
    },
    {
        "id": "66",
        "device_id": "003T1125",
        "name": "色织一厂",
        "lat": "31.212197",
        "lng": "121.491963",
        "address": "制造局路361号"
    },
    {
        "id": "67",
        "device_id": "003T1188",
        "name": "江南造船博览馆",
        "lat": "31.207904",
        "lng": "121.50196",
        "address": "世博园区内"
    },
    {
        "id": "68",
        "device_id": "003T3058",
        "name": "远大空调馆",
        "lat": "31.207904",
        "lng": "121.50196",
        "address": "世博园区内"
    },
    {
        "id": "69",
        "device_id": "003T1254",
        "name": "中福二期",
        "lat": "31.238619",
        "lng": "121.484866",
        "address": "广西北路228弄"
    },
    {
        "id": "70",
        "device_id": "003T2002",
        "name": "经典茂名",
        "lat": "31.235094",
        "lng": "121.465681",
        "address": "茂名北路318弄"
    },
    {
        "id": "71",
        "device_id": "003T1253",
        "name": "中福城",
        "lat": "31.237833",
        "lng": "121.486698",
        "address": "浙江中路118弄"
    },
    {
        "id": "72",
        "device_id": "003T1270",
        "name": "众鑫城",
        "lat": "31.225719",
        "lng": "121.489413",
        "address": "西藏南路555弄"
    },
    {
        "id": "73",
        "device_id": "003T1409",
        "name": "滨江名人苑",
        "lat": "31.229185",
        "lng": "121.505042",
        "address": "中华路88号"
    },
    {
        "id": "74",
        "device_id": "003T1137",
        "name": "士林华苑",
        "lat": "31.226807",
        "lng": "121.497311",
        "address": "河南南路555弄"
    },
    {
        "id": "75",
        "device_id": "003T1319",
        "name": "县左街",
        "lat": "31.229877",
        "lng": "121.501449",
        "address": "县左街24弄16号"
    },
    {
        "id": "77",
        "device_id": "003T1316",
        "name": "海琪园",
        "lat": "31.180838",
        "lng": "121.442579",
        "address": "中山路398"
    },
    {
        "id": "78",
        "device_id": "003T1271",
        "name": "绿地名人坊",
        "lat": "31.223841",
        "lng": "121.504527",
        "address": "中华路429号"
    },
    {
        "id": "79",
        "device_id": "003T1315",
        "name": "福鑫大楼",
        "lat": "31.225417",
        "lng": "121.507022",
        "address": "白渡路258号外郎家桥街"
    },
    {
        "id": "603",
        "device_id": "003T2156",
        "name": "都华明苑",
        "lat": "31.251788",
        "lng": "121.444241",
        "address": ""
    },
    {
        "id": "638",
        "device_id": "003T2076",
        "name": "消防宜昌中队",
        "lat": "31.254014",
        "lng": "121.443557",
        "address": "宜昌路216号"
    },
    {
        "id": "639",
        "device_id": "003T2030",
        "name": "安远路大众美林阁",
        "lat": "31.24154",
        "lng": "121.437592",
        "address": "安远路"
    },
    {
        "id": "678",
        "device_id": "003T2032",
        "name": "安远路768号",
        "lat": "31.242499",
        "lng": "121.445585",
        "address": "安远路768号"
    },
    {
        "id": "695",
        "device_id": "003T2044",
        "name": "西康路1001号",
        "lat": "31.251333",
        "lng": "121.441091",
        "address": "西康路1001号"
    },
    {
        "id": "746",
        "device_id": "003T2066",
        "name": "普陀路230号",
        "lat": "31.251336",
        "lng": "121.446242",
        "address": "澳门路519弄1号"
    },
    {
        "id": "747",
        "device_id": "003T2130",
        "name": "中华印刷厂",
        "lat": "31.252004",
        "lng": "121.446648",
        "address": "澳门路477号"
    },
    {
        "id": "748",
        "device_id": "003T2074",
        "name": "丰马",
        "lat": "31.253264",
        "lng": "121.451194",
        "address": "澳门路197号"
    },
    {
        "id": "753",
        "device_id": "003T2086",
        "name": "常德路1375弄3号",
        "lat": "31.248574",
        "lng": "121.439497",
        "address": "常德路1375弄3号"
    },
    {
        "id": "763",
        "device_id": "003T2067",
        "name": "半岛花园",
        "lat": "31.252824",
        "lng": "121.442903",
        "address": "西康路1518号"
    },
    {
        "id": "20080",
        "device_id": "003T1388",
        "name": "中山南路200弄",
        "lat": "31.228273",
        "lng": "121.507976",
        "address": "中山南路200弄"
    },
    {
        "id": "20081",
        "device_id": "003T2096",
        "name": "瑞金路4弄",
        "lat": "31.221527",
        "lng": "121.471143",
        "address": "瑞金路4弄"
    },
    {
        "id": "20082",
        "device_id": "003T1264",
        "name": "徐家汇路正兴房产",
        "lat": "31.213773",
        "lng": "121.468228",
        "address": "徐家汇路560弄"
    },
    {
        "id": "20083",
        "device_id": "003T2056",
        "name": "保温瓶二厂",
        "lat": "31.244501",
        "lng": "121.455744",
        "address": ""
    },
    {
        "id": "20086",
        "device_id": "003T1400",
        "name": "老西门新苑",
        "lat": "31.221661",
        "lng": "121.489648",
        "address": "老西门新苑"
    },
    {
        "id": "20087",
        "device_id": "003T1123",
        "name": "西姚家路50号",
        "lat": "31.215657",
        "lng": "121.503348",
        "address": "西姚家路50号"
    },
    {
        "id": "20088",
        "device_id": "003T3006",
        "name": "翠湖天地",
        "lat": "31.22432",
        "lng": "121.485294",
        "address": "翠湖天地"
    },
    {
        "id": "20089",
        "device_id": "003T3009",
        "name": "淡水湾花园",
        "lat": "31.216425",
        "lng": "121.481896",
        "address": "淡水路421弄"
    },
    {
        "id": "20090",
        "device_id": "003T1124",
        "name": "上海滩花园",
        "lat": "31.224804",
        "lng": "121.506558",
        "address": "上海滩花园"
    },
    {
        "id": "20091",
        "device_id": "003T1128",
        "name": "光启路137号",
        "lat": "31.229068",
        "lng": "121.500597",
        "address": "光启路137号"
    },
    {
        "id": "20092",
        "device_id": "003T1115",
        "name": "中福三期",
        "lat": "31.239504",
        "lng": "121.483916",
        "address": "中福三期"
    },
    {
        "id": "20093",
        "device_id": "003T3001",
        "name": "华丽房产",
        "lat": "31.244911",
        "lng": "121.496357",
        "address": "马当路太仓路路口（大华银行)"
    },
    {
        "id": "20094",
        "device_id": "003T3002",
        "name": "马当路222号",
        "lat": "31.223596",
        "lng": "121.4817",
        "address": "马当路222号"
    },
    {
        "id": "20095",
        "device_id": "003T1410",
        "name": "申江新苑",
        "lat": "31.225664",
        "lng": "121.508385",
        "address": "申江新苑"
    },
    {
        "id": "20096",
        "device_id": "003T1119",
        "name": "圣莲大厦",
        "lat": "31.228607",
        "lng": "121.503532",
        "address": "圣莲大厦"
    },
    {
        "id": "20097",
        "device_id": "003T1411",
        "name": "金坛路35弄",
        "lat": "31.224942",
        "lng": "121.504578",
        "address": "金坛路35弄"
    },
    {
        "id": "20098",
        "device_id": "003T3055",
        "name": "绿地海珀",
        "lat": "31.199366",
        "lng": "121.478892",
        "address": "龙华东路886号（近开平路"
    },
    {
        "id": "20099",
        "device_id": "003T2006",
        "name": "静安四季园",
        "lat": "31.235433",
        "lng": "121.467312",
        "address": "静安四季园"
    },
    {
        "id": "20100",
        "device_id": "003T3054",
        "name": "绿地海珀",
        "lat": "31.094769",
        "lng": "121.182286",
        "address": "绿地海珀"
    },
    {
        "id": "20101",
        "device_id": "003T1195",
        "name": "沃福商业",
        "lat": "31.158066",
        "lng": "121.189288",
        "address": "沃福商业"
    },
    {
        "id": "20102",
        "device_id": "003T1175",
        "name": "青年会宾馆",
        "lat": "31.233168",
        "lng": "121.486068",
        "address": "青年会宾馆"
    },
    {
        "id": "20104",
        "device_id": "003T2037",
        "name": "达安花园",
        "lat": "31.23766",
        "lng": "121.436512",
        "address": "长寿路999弄1～66号"
    },
    {
        "id": "20106",
        "device_id": "003T2048",
        "name": "枫景苑",
        "lat": "31.119891",
        "lng": "121.253118",
        "address": "枫景苑"
    },
    {
        "id": "20108",
        "device_id": "003T1383",
        "name": "东淮海公寓",
        "lat": "31.232958",
        "lng": "121.491966",
        "address": "东淮海公寓"
    },
    {
        "id": "20109",
        "device_id": "003T1404",
        "name": "中复大楼",
        "lat": "31.226189",
        "lng": "121.506275",
        "address": "复兴东路248号"
    },
    {
        "id": "20110",
        "device_id": "003T2063",
        "name": "常德余姚",
        "lat": "31.242737",
        "lng": "121.44739",
        "address": "常德余姚"
    },
    {
        "id": "20111",
        "device_id": "003T1140",
        "name": "市二医院",
        "lat": "31.21602",
        "lng": "121.51173",
        "address": "多稼路1号"
    },
    {
        "id": "20112",
        "device_id": "003T2038",
        "name": "阳光名都",
        "lat": "31.241302",
        "lng": "121.440395",
        "address": "安远路777弄"
    },
    {
        "id": "20113",
        "device_id": "003T2035",
        "name": "三鑫花苑",
        "lat": "31.235389",
        "lng": "121.436501",
        "address": "康定路1588弄"
    },
    {
        "id": "20114",
        "device_id": "003T2034",
        "name": "吉臣酒店",
        "lat": "31.234122",
        "lng": "121.436456",
        "address": "万航渡路818号"
    },
    {
        "id": "20115",
        "device_id": "003T3052",
        "name": "香港新世纪大厦",
        "lat": "31.22964",
        "lng": "121.479946",
        "address": "蒙自路763号（中山路与龙华路中间）"
    },
    {
        "id": "20120",
        "device_id": "003T1305",
        "name": "瑞福大楼",
        "lat": "31.234281",
        "lng": "121.484581",
        "address": "永寿路（延安路广西路进去）"
    },
    {
        "id": "20121",
        "device_id": "003T3061",
        "name": "打浦路龙华中路南面",
        "lat": "31.208343",
        "lng": "121.491629",
        "address": "打浦路700号斜对面"
    },
    {
        "id": "20122",
        "device_id": "003T1164",
        "name": "半岛酒店",
        "lat": "31.247036",
        "lng": "121.495414",
        "address": "半岛酒店"
    },
    {
        "id": "20123",
        "device_id": "003T1165",
        "name": "半岛酒店",
        "lat": "31.247036",
        "lng": "121.495414",
        "address": "半岛酒店"
    },
    {
        "id": "20124",
        "device_id": "003T1173",
        "name": "半岛酒店",
        "lat": "31.247036",
        "lng": "121.495414",
        "address": "半岛酒店"
    },
    {
        "id": "20125",
        "device_id": "003T1163",
        "name": "仁济医院",
        "lat": "31.05811",
        "lng": "121.234632",
        "address": "山东路164号对面"
    },
    {
        "id": "20126",
        "device_id": "003T2015",
        "name": "花园饭店",
        "lat": "31.226549",
        "lng": "121.46565",
        "address": "长乐路193号"
    },
    {
        "id": "20127",
        "device_id": "003T2016",
        "name": "花园饭店",
        "lat": "31.222039",
        "lng": "121.464273",
        "address": "长乐路进门卫旁"
    },
    {
        "id": "20128",
        "device_id": "003T3038",
        "name": "文明馆",
        "lat": "31.2709",
        "lng": "121.613374",
        "address": "蒙自路龙华路铁丝网"
    },
    {
        "id": "20131",
        "device_id": "003T1235",
        "name": "人民广场",
        "lat": "31.233549",
        "lng": "121.478658",
        "address": "黄陂北路110号武胜路"
    },
    {
        "id": "20133",
        "device_id": "003T2097",
        "name": "城市酒店",
        "lat": "31.228588",
        "lng": "121.463168",
        "address": "陕西南路72号"
    },
    {
        "id": "20135",
        "device_id": "003T2083",
        "name": "万航镇宁",
        "lat": "31.232162",
        "lng": "121.445294",
        "address": "万航渡路299号"
    },
    {
        "id": "20138",
        "device_id": "003T2047",
        "name": "新闸常德",
        "lat": "31.236243",
        "lng": "121.452773",
        "address": "新闸常德"
    },
    {
        "id": "20139",
        "device_id": "003T2082",
        "name": "江宁武定",
        "lat": "31.240335",
        "lng": "121.458854",
        "address": "江宁路401号"
    },
    {
        "id": "20141",
        "device_id": "003T2111",
        "name": "达安城",
        "lat": "31.241631",
        "lng": "121.467587",
        "address": "新闸路777弄石门二路"
    },
    {
        "id": "20142",
        "device_id": "003T2126",
        "name": "凯迪克大厦",
        "lat": "31.237821",
        "lng": "121.46118",
        "address": "江宁路212号"
    },
    {
        "id": "20144",
        "device_id": "003T2064",
        "name": "达安锦园",
        "lat": "31.243738",
        "lng": "121.448587",
        "address": "新丰路518弄"
    },
    {
        "id": "20145",
        "device_id": "003T2100",
        "name": "中凯（门站）",
        "lat": "31.231321",
        "lng": "121.469745",
        "address": "成都北路165号大沽路"
    },
    {
        "id": "20146",
        "device_id": "003T2051",
        "name": "华东医院",
        "lat": "31.224851",
        "lng": "121.447897",
        "address": "延安西路221号"
    },
    {
        "id": "20147",
        "device_id": "003T2062",
        "name": "晶华苑",
        "lat": "31.229766",
        "lng": "121.4857",
        "address": "晶华苑"
    },
    {
        "id": "20148",
        "device_id": "003T1366",
        "name": "东业大厦",
        "lat": "31.228117",
        "lng": "121.505188",
        "address": "中华路185号"
    },
    {
        "id": "20149",
        "device_id": "003T1031",
        "name": "青莲街",
        "lat": "31.24916",
        "lng": "121.4879",
        "address": "人民路875号"
    },
    {
        "id": "20150",
        "device_id": "003T1405",
        "name": "中华路211弄",
        "lat": "31.227398",
        "lng": "121.505143",
        "address": "中华路211弄"
    },
    {
        "id": "20151",
        "device_id": "003T1237",
        "name": "新地苑",
        "lat": "31.228014",
        "lng": "121.497779",
        "address": "新地苑"
    },
    {
        "id": "20152",
        "device_id": "003T1329",
        "name": "中恒",
        "lat": "31.224913",
        "lng": "121.504212",
        "address": "巡道街99号"
    },
    {
        "id": "20154",
        "device_id": "003T1159",
        "name": "面筋弄",
        "lat": "31.225997",
        "lng": "121.505469",
        "address": "面筋弄23号"
    },
    {
        "id": "20155",
        "device_id": "003T1167",
        "name": "浦江公馆",
        "lat": "31.225856",
        "lng": "121.400847",
        "address": "中华路168弄"
    },
    {
        "id": "20156",
        "device_id": "003T1176",
        "name": "老西门公寓",
        "lat": "31.219892",
        "lng": "121.488932",
        "address": "建国新路77弄"
    },
    {
        "id": "20157",
        "device_id": "003T1196",
        "name": "河南309",
        "lat": "31.230464",
        "lng": "121.495263",
        "address": "河南南路309弄1号"
    },
    {
        "id": "20158",
        "device_id": "003T1203",
        "name": "东街口",
        "lat": "31.227657",
        "lng": "121.503604",
        "address": "复兴东路东街口"
    },
    {
        "id": "20159",
        "device_id": "003T1204",
        "name": "华润外滩九里",
        "lat": "31.225795",
        "lng": "121.512553",
        "address": "毛家园路"
    },
    {
        "id": "20160",
        "device_id": "003T3004",
        "name": "海丽",
        "lat": "31.209701",
        "lng": "121.47602",
        "address": "打浦路80号"
    },
    {
        "id": "20161",
        "device_id": "003T1386",
        "name": "五里桥",
        "lat": "31.209705",
        "lng": "121.488012",
        "address": "五里桥路188弄6号对面"
    },
    {
        "id": "20162",
        "device_id": "003T3035",
        "name": "瑞金南路185弄",
        "lat": "31.206107",
        "lng": "121.475441",
        "address": "瑞金南路185弄"
    },
    {
        "id": "20163",
        "device_id": "003T3037",
        "name": "翠湖天地苑",
        "lat": "31.224435",
        "lng": "121.485813",
        "address": "自忠路321号"
    },
    {
        "id": "20164",
        "device_id": "003T3059",
        "name": "赢通绿地",
        "lat": "31.212423",
        "lng": "121.479407",
        "address": "开平路88号围墙跟地下车库入口旁边"
    },
    {
        "id": "20165",
        "device_id": "003T2046",
        "name": "三和花园",
        "lat": "31.234783",
        "lng": "121.446452",
        "address": "三和花园"
    },
    {
        "id": "20176",
        "device_id": "003T1257",
        "name": "长新大楼",
        "lat": "31.244248",
        "lng": "121.477633",
        "address": "新闸路长沙路"
    },
    {
        "id": "20177",
        "device_id": "003T1143",
        "name": "海潮路国货路",
        "lat": "31.207878",
        "lng": "121.523208",
        "address": "海潮路国货路（南浦大桥下）"
    },
    {
        "id": "20178",
        "device_id": "003T1350",
        "name": "黄浦湾",
        "lat": "31.227294",
        "lng": "121.504111",
        "address": "中山南路566弄(近白渡路紫霞路）"
    },
    {
        "id": "20179",
        "device_id": "003T3070",
        "name": "香港新世界花园",
        "lat": "31.214545",
        "lng": "121.489694",
        "address": "中山南路500号（制造局路）"
    },
    {
        "id": "20180",
        "device_id": "003T1220",
        "name": "尚文中学",
        "lat": "31.223973",
        "lng": "121.507971",
        "address": "紫霞路"
    },
    {
        "id": "20181",
        "device_id": "003T2042",
        "name": "华敏帝豪大厦(炉)",
        "lat": "31.237369",
        "lng": "121.462971",
        "address": "北京西路958号（江宁路以东）"
    },
    {
        "id": "20182",
        "device_id": "003T2043",
        "name": "华敏帝豪大厦(灶)",
        "lat": "31.238331",
        "lng": "121.450055",
        "address": "北京西路958号（江宁路以东）"
    },
    {
        "id": "20183",
        "device_id": "003T2045",
        "name": "静安豪景苑",
        "lat": "31.23908",
        "lng": "121.45339",
        "address": "西康路501弄（康定路大门进）"
    },
    {
        "id": "20184",
        "device_id": "003T3065",
        "name": "金叠房产",
        "lat": "30.896729",
        "lng": "121.0627",
        "address": "鲁班路611号（中山路 马路东北角）"
    },
    {
        "id": "20185",
        "device_id": "003T3066",
        "name": "金叠房产",
        "lat": "30.896729",
        "lng": "121.0627",
        "address": "鲁班路611号（中山路 马路东北角）"
    },
    {
        "id": "20186",
        "device_id": "003T1215",
        "name": "敬业中学",
        "lat": "31.218451",
        "lng": "121.499827",
        "address": "尚文路75号（河南南路）"
    },
    {
        "id": "20187",
        "device_id": "003T1216",
        "name": "黄埔早期教育",
        "lat": "31.218451",
        "lng": "121.499827",
        "address": "尚文路75号（河南南路）"
    },
    {
        "id": "20189",
        "device_id": "JAZ00002",
        "name": "澳门路698弄10号",
        "lat": "31.249827",
        "lng": "121.44235",
        "address": "澳门路698弄10号"
    },
    {
        "id": "20191",
        "device_id": "003T1242",
        "name": "三角大楼",
        "lat": "31.214953",
        "lng": "121.507952",
        "address": "陆家浜路285弄"
    },
    {
        "id": "20192",
        "device_id": "JAZ00003",
        "name": "复兴东路1055弄6号",
        "lat": "31.225861",
        "lng": "121.491779",
        "address": "复兴东路1055弄6号"
    },
    {
        "id": "20193",
        "device_id": "JAZ00004",
        "name": "广东路414弄27号对面",
        "lat": "31.238709",
        "lng": "121.489802",
        "address": "广东路414弄27号对面"
    },
    {
        "id": "20194",
        "device_id": "003T1325",
        "name": "北京河南",
        "lat": "31.24443",
        "lng": "121.488191",
        "address": "河南南路宁波路口"
    },
    {
        "id": "20195",
        "device_id": "003T1296",
        "name": "西藏稳德福",
        "lat": "31.244616",
        "lng": "121.502261",
        "address": "西藏中路725弄花园内"
    },
    {
        "id": "20198",
        "device_id": "003T2080",
        "name": "泰府名邸",
        "lat": "31.238559",
        "lng": "121.444323",
        "address": "康定路70号"
    },
    {
        "id": "20199",
        "device_id": "003T1177",
        "name": "香港名都",
        "lat": "31.228289",
        "lng": "121.496477",
        "address": "河南南路489号"
    },
    {
        "id": "20200",
        "device_id": "003T3008",
        "name": "高城苑",
        "lat": "31.214029",
        "lng": "121.489177",
        "address": "丽园路448号"
    },
    {
        "id": "20201",
        "device_id": "003T1324",
        "name": "河南福州",
        "lat": "31.241165",
        "lng": "121.492877",
        "address": "河南中路280号"
    },
    {
        "id": "20203",
        "device_id": "003T1036",
        "name": "城城宾馆",
        "lat": "31.233517",
        "lng": "121.491618",
        "address": "人民路833号"
    },
    {
        "id": "20204",
        "device_id": "003T1233",
        "name": "东亚饭店",
        "lat": "31.241607",
        "lng": "121.484041",
        "address": "南京东路680号"
    },
    {
        "id": "20205",
        "device_id": "003T1232",
        "name": "裕德池",
        "lat": "31.242034",
        "lng": "121.484242",
        "address": "天津路479号"
    },
    {
        "id": "20206",
        "device_id": "003T1225",
        "name": "上海华东置业商厦",
        "lat": "31.242439",
        "lng": "121.489387",
        "address": "南京东路383号"
    },
    {
        "id": "20207",
        "device_id": "003T1226",
        "name": "上海华东置业商厦",
        "lat": "31.242439",
        "lng": "121.489387",
        "address": "南京东路383号"
    },
    {
        "id": "20208",
        "device_id": "003T1078",
        "name": "协通国际大酒店",
        "lat": "31.2462",
        "lng": "121.488835",
        "address": "北京东路398号"
    },
    {
        "id": "20209",
        "device_id": "003T1079",
        "name": "协通国际大酒店",
        "lat": "31.2462",
        "lng": "121.488835",
        "address": "北京东路398号"
    },
    {
        "id": "20210",
        "device_id": "003T1084",
        "name": "港博大厦",
        "lat": "31.245149",
        "lng": "121.484997",
        "address": "九江路668号"
    },
    {
        "id": "20211",
        "device_id": "003T1085",
        "name": "世福汇大酒店",
        "lat": "31.197542",
        "lng": "121.462174",
        "address": "广东路353号"
    },
    {
        "id": "20212",
        "device_id": "003T1086",
        "name": "世福汇大酒店",
        "lat": "31.197542",
        "lng": "121.462174",
        "address": "广东路353号"
    },
    {
        "id": "20213",
        "device_id": "003T1090",
        "name": "天安大厦",
        "lat": "31.237406",
        "lng": "121.476162",
        "address": "南京西路338号"
    },
    {
        "id": "20214",
        "device_id": "003T1091",
        "name": "天安大厦",
        "lat": "31.237406",
        "lng": "121.476162",
        "address": "南京西路338号"
    },
    {
        "id": "20215",
        "device_id": "003T1105",
        "name": "上海智富休闲广场",
        "lat": "31.238853",
        "lng": "121.475912",
        "address": "新昌路80号"
    },
    {
        "id": "20216",
        "device_id": "003T1106",
        "name": "上海智富休闲广场",
        "lat": "31.238853",
        "lng": "121.475912",
        "address": "新昌路80号"
    },
    {
        "id": "20218",
        "device_id": "003T1331",
        "name": "中山南路临江花园",
        "lat": "31.219091",
        "lng": "121.513728",
        "address": "中山南路865弄"
    },
    {
        "id": "20219",
        "device_id": "003T1330",
        "name": "中山南路临江花园",
        "lat": "31.219091",
        "lng": "121.513728",
        "address": "中山南路865弄"
    },
    {
        "id": "20220",
        "device_id": "003T1150",
        "name": "上海城隍庙广场置业有限公司",
        "lat": "31.230601",
        "lng": "121.498054",
        "address": "方浜中路280号"
    },
    {
        "id": "20221",
        "device_id": "003T1153",
        "name": "上海海怡大厦",
        "lat": "31.246645",
        "lng": "121.481248",
        "address": "南苏州路933号"
    },
    {
        "id": "20222",
        "device_id": "003T1162",
        "name": "王宝和大酒店",
        "lat": "31.24102",
        "lng": "121.488011",
        "address": "九江路505号"
    },
    {
        "id": "20223",
        "device_id": "003T1118",
        "name": "华盛大厦",
        "lat": "31.241334",
        "lng": "121.489222",
        "address": "汉口路400号"
    },
    {
        "id": "20224",
        "device_id": "003T1170",
        "name": "金欣联合发展公司海欣大厦",
        "lat": "31.238422",
        "lng": "121.484331",
        "address": "福州路666号"
    },
    {
        "id": "20225",
        "device_id": "003T1171",
        "name": "金欣联合发展公司海欣大厦",
        "lat": "31.238422",
        "lng": "121.484331",
        "address": "福州路666号"
    },
    {
        "id": "20226",
        "device_id": "003T1207",
        "name": "雅乐居地产",
        "lat": "31.243086",
        "lng": "121.479994",
        "address": "西藏中路559号"
    },
    {
        "id": "20227",
        "device_id": "003T1208",
        "name": "雅乐居地产",
        "lat": "31.243086",
        "lng": "121.479994",
        "address": "西藏中路559号"
    },
    {
        "id": "20228",
        "device_id": "003T1213",
        "name": "金外滩宾馆",
        "lat": "31.237735",
        "lng": "121.488063",
        "address": "北海路38号"
    },
    {
        "id": "20229",
        "device_id": "003T3067",
        "name": "上海金叠房地产开发有限公司",
        "lat": "30.896729",
        "lng": "121.0627",
        "address": "鲁班路611号"
    },
    {
        "id": "20230",
        "device_id": "003T3053",
        "name": "香港新世纪大厦",
        "lat": "31.202467",
        "lng": "121.488918",
        "address": "蒙自路763号"
    },
    {
        "id": "20231",
        "device_id": "003T1403",
        "name": "尚文路",
        "lat": "31.221253",
        "lng": "121.499461",
        "address": "河南南路747号"
    },
    {
        "id": "20232",
        "device_id": "003T3063",
        "name": "城汇大厦",
        "lat": "31.224821",
        "lng": "121.476955",
        "address": "南昌路45号"
    },
    {
        "id": "20233",
        "device_id": "003T3064",
        "name": "城汇大厦",
        "lat": "31.224821",
        "lng": "121.476955",
        "address": "南昌路45号"
    },
    {
        "id": "20234",
        "device_id": "003T1248",
        "name": "茂名南路9号",
        "lat": "31.228071",
        "lng": "121.467443",
        "address": "茂名南路9号"
    },
    {
        "id": "20235",
        "device_id": "003T2040",
        "name": "远中风华园",
        "lat": "31.241108",
        "lng": "121.462164",
        "address": "新闸路1068弄"
    },
    {
        "id": "20236",
        "device_id": "003T2041",
        "name": "远中风华园",
        "lat": "31.241108",
        "lng": "121.462164",
        "address": "新闸路1068弄"
    },
    {
        "id": "20237",
        "device_id": "003T2013",
        "name": "云峰剧场",
        "lat": "31.232909",
        "lng": "121.449303",
        "address": "北京西路1700号"
    },
    {
        "id": "20238",
        "device_id": "003T2014",
        "name": "肆和小区",
        "lat": "31.232668",
        "lng": "121.446586",
        "address": "新闸路1970号"
    },
    {
        "id": "20239",
        "device_id": "003T2026",
        "name": "越洋广场",
        "lat": "31.230405",
        "lng": "121.453525",
        "address": "南京西路1600号"
    },
    {
        "id": "20240",
        "device_id": "003T2053",
        "name": "静安交通枢纽",
        "lat": "31.232456",
        "lng": "121.453384",
        "address": "常德路赵家桥路，北京路与愚园路当中"
    },
    {
        "id": "20241",
        "device_id": "003T2060",
        "name": "悦达广场",
        "lat": "31.235634",
        "lng": "121.435089",
        "address": "万航渡路889号"
    },
    {
        "id": "20242",
        "device_id": "003T2025",
        "name": "越洋广场",
        "lat": "31.230405",
        "lng": "121.453525",
        "address": "南京西路1600号"
    },
    {
        "id": "20243",
        "device_id": "003T3060",
        "name": "赢通绿地",
        "lat": "31.198069",
        "lng": "121.477763",
        "address": "开平路88号"
    },
    {
        "id": "20244",
        "device_id": "003T2085",
        "name": "北京常德",
        "lat": "31.233521",
        "lng": "121.453441",
        "address": "北京常德"
    },
    {
        "id": "20245",
        "device_id": "003T2027",
        "name": "越洋广场",
        "lat": "31.230405",
        "lng": "121.453525",
        "address": "南京西路1600号"
    },
    {
        "id": "20246",
        "device_id": "003T2084",
        "name": "二十三漂",
        "lat": "31.240288",
        "lng": "121.440612",
        "address": "余姚路500弄"
    },
    {
        "id": "20247",
        "device_id": "003T2059",
        "name": "悦达广场",
        "lat": "31.235634",
        "lng": "121.435089",
        "address": "万航渡路889号"
    },
    {
        "id": "20248",
        "device_id": "003T2087",
        "name": "上海电视台",
        "lat": "31.240632",
        "lng": "121.481407",
        "address": "南京路"
    },
    {
        "id": "20249",
        "device_id": "003T2088",
        "name": "长乐路1236弄",
        "lat": "31.221157",
        "lng": "121.44753",
        "address": "长乐路1236弄"
    },
    {
        "id": "20256",
        "device_id": "003T2065",
        "name": "四季之门",
        "lat": "31.242979",
        "lng": "121.45581",
        "address": "宜昌路过陕西路"
    },
    {
        "id": "20277",
        "device_id": "003T2069",
        "name": "江宁路长寿路口",
        "lat": "31.250155",
        "lng": "121.450802",
        "address": "江宁路1158号"
    },
    {
        "id": "20286",
        "device_id": "JAZ00005",
        "name": "南京西路1025弄109号",
        "lat": "31.234722",
        "lng": "121.464165",
        "address": "南京西路1025弄109号"
    },
    {
        "id": "20287",
        "device_id": "JAZ00006",
        "name": "宁波路120弄18号",
        "lat": "31.245691",
        "lng": "121.491131",
        "address": "宁波路120弄18号"
    },
    {
        "id": "20288",
        "device_id": "JAZ00007",
        "name": "富民路164弄13号",
        "lat": "31.224891",
        "lng": "121.457113",
        "address": "富民路164弄13号"
    },
    {
        "id": "20289",
        "device_id": "JAZ00008",
        "name": "成都北路1037弄3号",
        "lat": "31.246154",
        "lng": "121.469195",
        "address": "成都北路1037弄3号"
    },
    {
        "id": "20290",
        "device_id": "JAZ00009",
        "name": "普育东路101弄5号",
        "lat": "31.215257",
        "lng": "121.50288",
        "address": "普育东路101弄5号"
    },
    {
        "id": "20291",
        "device_id": "JAZ00010",
        "name": "翟溪路1072弄33",
        "lat": "31.212558",
        "lng": "121.50252",
        "address": "翟溪路1072弄33"
    },
    {
        "id": "20292",
        "device_id": "003T2140",
        "name": "常春藤房产",
        "lat": "31.237173",
        "lng": "121.467296",
        "address": "奉贤路泰兴石门路中间"
    },
    {
        "id": "20293",
        "device_id": "003T2143",
        "name": "陕西大厦",
        "lat": "31.223814",
        "lng": "121.467699",
        "address": "延安路茂名路"
    },
    {
        "id": "20294",
        "device_id": "003T2136",
        "name": "九佰城市广场",
        "lat": "31.229402",
        "lng": "121.453901",
        "address": "静安寺愚园路"
    },
    {
        "id": "20295",
        "device_id": "003T1317",
        "name": "中山路圆明园路",
        "lat": "31.249125",
        "lng": "121.494796",
        "address": "吴淞路闸桥，外白渡桥下"
    },
    {
        "id": "20296",
        "device_id": "003T1328",
        "name": "香港广场",
        "lat": "31.229107",
        "lng": "121.481557",
        "address": "黄陂南路淮海路北马路边"
    },
    {
        "id": "20297",
        "device_id": "003T1321",
        "name": "山东路",
        "lat": "31.240107",
        "lng": "121.490393",
        "address": "北京路河南路进去"
    },
    {
        "id": "20298",
        "device_id": "003T2114",
        "name": "北京西路石门二路",
        "lat": "31.226472",
        "lng": "121.446267",
        "address": "北京西路石门二路（绿地内）"
    },
    {
        "id": "20299",
        "device_id": "003T2112",
        "name": "申元大厦",
        "lat": "31.24156",
        "lng": "121.467154",
        "address": "石门二路258号"
    },
    {
        "id": "20300",
        "device_id": "003T2058",
        "name": "上海宾馆",
        "lat": "31.22465",
        "lng": "121.450213",
        "address": "乌鲁木齐北路501号"
    },
    {
        "id": "20301",
        "device_id": "003T3003",
        "name": "打浦路316弄",
        "lat": "31.205766",
        "lng": "121.477623",
        "address": "打浦路316弄"
    },
    {
        "id": "20302",
        "device_id": "003T3028",
        "name": "金玉兰广场",
        "lat": "31.211069",
        "lng": "121.477269",
        "address": "打浦路1号"
    },
    {
        "id": "20303",
        "device_id": "003T3024",
        "name": "金玉兰广场",
        "lat": "31.211069",
        "lng": "121.477269",
        "address": "打浦路1号"
    },
    {
        "id": "20304",
        "device_id": "003T1238",
        "name": "新地苑",
        "lat": "31.228173",
        "lng": "121.49704",
        "address": "复兴东路701弄1号"
    },
    {
        "id": "20305",
        "device_id": "003T1158",
        "name": "上海中银建设置地有限公司",
        "lat": "31.21541",
        "lng": "121.492908",
        "address": "西藏南路1170号"
    },
    {
        "id": "20306",
        "device_id": "003T1247",
        "name": "明天广场",
        "lat": "31.236866",
        "lng": "121.475321",
        "address": "南京西路389号"
    },
    {
        "id": "20307",
        "device_id": "003T1241",
        "name": "房地大厦",
        "lat": "31.241386",
        "lng": "121.522543",
        "address": "北京西路161弄内"
    },
    {
        "id": "20308",
        "device_id": "003T1286",
        "name": "宏伊国际广场",
        "lat": "31.240632",
        "lng": "121.481407",
        "address": "南京东路299号"
    },
    {
        "id": "20309",
        "device_id": "003T1287",
        "name": "宏伊国际广场",
        "lat": "31.240632",
        "lng": "121.481407",
        "address": "南京东路299号"
    },
    {
        "id": "20310",
        "device_id": "003T1272",
        "name": "中西医结合医院",
        "lat": "31.222",
        "lng": "121.500973",
        "address": "黄家路163号"
    },
    {
        "id": "20311",
        "device_id": "003T1269",
        "name": "长征医院办公楼",
        "lat": "31.251434",
        "lng": "121.458709",
        "address": "汉口路515弄边门"
    },
    {
        "id": "20312",
        "device_id": "003T2057",
        "name": "静安现代产业大厦",
        "lat": "31.245392",
        "lng": "121.459933",
        "address": "昌平路86号"
    },
    {
        "id": "20313",
        "device_id": "003T2094",
        "name": "上海机场城市航站楼",
        "lat": "31.230405",
        "lng": "121.453525",
        "address": "南京西路1600号"
    },
    {
        "id": "20314",
        "device_id": "003T2095",
        "name": "上海机场城市航站楼(低压)",
        "lat": "31.230405",
        "lng": "121.453525",
        "address": "南京西路1600号"
    },
    {
        "id": "20315",
        "device_id": "003T2113",
        "name": "嘉天汇",
        "lat": "31.229742",
        "lng": "121.442826",
        "address": "乌鲁木齐北路30弄8号"
    },
    {
        "id": "20316",
        "device_id": "003T1256",
        "name": "卢湾体育局",
        "lat": "31.212969",
        "lng": "121.47026",
        "address": "建国西路135号"
    },
    {
        "id": "20317",
        "device_id": "003T3005",
        "name": "蒙自路238弄",
        "lat": "31.209477",
        "lng": "121.485557",
        "address": "蒙自路238弄"
    },
    {
        "id": "20318",
        "device_id": "003T3036",
        "name": "大浪淘沙卢湾店",
        "lat": "31.201977",
        "lng": "121.478676",
        "address": "中山南一路1065号"
    },
    {
        "id": "20319",
        "device_id": "003T1377",
        "name": "卢湾区政府",
        "lat": "31.227492",
        "lng": "121.477899",
        "address": "南昌路43号重庆路口"
    },
    {
        "id": "20322",
        "device_id": "003T2036",
        "name": "静安新世纪",
        "lat": "31.236921",
        "lng": "121.437736",
        "address": "余姚路816号"
    },
    {
        "id": "20323",
        "device_id": "003T3056",
        "name": "上海鼎荣房地产开发",
        "lat": "31.212275",
        "lng": "121.475424",
        "address": "徐家汇路618号"
    },
    {
        "id": "20324",
        "device_id": "003T3057",
        "name": "上海鼎荣房地产开发",
        "lat": "31.212275",
        "lng": "121.475424",
        "address": "徐家汇路618号"
    },
    {
        "id": "20325",
        "device_id": "003T2147",
        "name": "北京大田",
        "lat": "31.232193",
        "lng": "121.474676",
        "address": "大田路127号，加油站边"
    },
    {
        "id": "20326",
        "device_id": "003T1351",
        "name": "新昌诚",
        "lat": "31.24398",
        "lng": "121.472357",
        "address": "新闸路新昌诚，南北高桥的东面"
    },
    {
        "id": "20327",
        "device_id": "003T2028",
        "name": "安远路营业所大楼",
        "lat": "31.241819",
        "lng": "121.44102",
        "address": "安远路706号"
    },
    {
        "id": "20328",
        "device_id": "003T1352",
        "name": "太平洋百货",
        "lat": "31.228466",
        "lng": "121.480685",
        "address": "淮海中路333号"
    },
    {
        "id": "20329",
        "device_id": "003T2145",
        "name": "陕西威海",
        "lat": "31.231569",
        "lng": "121.463547",
        "address": "陕西北路80号"
    },
    {
        "id": "20330",
        "device_id": "003T2155",
        "name": "昌平常德",
        "lat": "31.241592",
        "lng": "121.450245",
        "address": "昌平路556弄"
    },
    {
        "id": "20331",
        "device_id": "003T1379",
        "name": "明天广场",
        "lat": "31.226588",
        "lng": "121.482017",
        "address": "江阴路黄陂路"
    },
    {
        "id": "20332",
        "device_id": "003T1326",
        "name": "第九人民医院",
        "lat": "31.207296",
        "lng": "121.493848",
        "address": "瞿溪路500号"
    },
    {
        "id": "20333",
        "device_id": "003T2125",
        "name": "嘉园",
        "lat": "31.230666",
        "lng": "121.442583",
        "address": "万航渡路464号"
    },
    {
        "id": "20334",
        "device_id": "003T1364",
        "name": "长征医院",
        "lat": "31.233298",
        "lng": "121.473133",
        "address": "凤阳路415号（靠近成都北路南京西路）"
    },
    {
        "id": "20335",
        "device_id": "003T2153",
        "name": "协和大厦",
        "lat": "31.265706",
        "lng": "121.464338",
        "address": "永远浜路镇宁路路口"
    },
    {
        "id": "20336",
        "device_id": "003T1088",
        "name": "新源广场",
        "lat": "31.227123",
        "lng": "121.509427",
        "address": "豆市街4号对面，近百渡路"
    },
    {
        "id": "20337",
        "device_id": "003T1375",
        "name": "保险大楼",
        "lat": "31.220351",
        "lng": "121.513264",
        "address": "中山路董家渡路"
    },
    {
        "id": "20338",
        "device_id": "JAZ00011",
        "name": "河南南路三九八弄1号旁西",
        "lat": "31.22781",
        "lng": "121.502881",
        "address": "河南南路三九八弄1号旁西"
    },
    {
        "id": "20340",
        "device_id": "003T1262",
        "name": "金外滩广场",
        "lat": "31.228787",
        "lng": "121.506428",
        "address": "老太平路外咸瓜街路口"
    },
    {
        "id": "20341",
        "device_id": "003T3014",
        "name": "金丽大厦（炉）",
        "lat": "31.2122",
        "lng": "121.480533",
        "address": "徐家汇路579号（丽园路口）"
    },
    {
        "id": "20342",
        "device_id": "003T3015",
        "name": "金丽大厦（灶）",
        "lat": "31.2122",
        "lng": "121.480533",
        "address": "徐家汇路579号（丽园路口）"
    },
    {
        "id": "20343",
        "device_id": "003T1266",
        "name": "上海兴侨房地产有限公司",
        "lat": "31.226881",
        "lng": "121.485468",
        "address": "吉安路18号"
    },
    {
        "id": "20344",
        "device_id": "003T1267",
        "name": "上海兴侨房地产有限公司",
        "lat": "31.226881",
        "lng": "121.485468",
        "address": "吉安路18号"
    },
    {
        "id": "20345",
        "device_id": "003T1385",
        "name": "中山南路1881弄",
        "lat": "31.208692",
        "lng": "121.49778",
        "address": "中山南路1881弄2号"
    },
    {
        "id": "20346",
        "device_id": "003T1179",
        "name": "最佳实践区（炉）",
        "lat": "31.204562",
        "lng": "121.504264",
        "address": "苗江路望达路（世博核心区域）"
    },
    {
        "id": "20347",
        "device_id": "003T1275",
        "name": "新凌大厦",
        "lat": "31.217239",
        "lng": "121.493722",
        "address": "西藏南路1107号"
    },
    {
        "id": "20348",
        "device_id": "003T1369",
        "name": "证大外滩（灶）",
        "lat": "31.233477",
        "lng": "121.502459",
        "address": "人民路龙潭路"
    },
    {
        "id": "20349",
        "device_id": "003T1370",
        "name": "证大外滩（炉）",
        "lat": "31.233477",
        "lng": "121.502459",
        "address": "人民路龙潭路"
    },
    {
        "id": "20350",
        "device_id": "003T1249",
        "name": "上海永基物业有限公司",
        "lat": "31.237572",
        "lng": "121.495996",
        "address": "溪口路延安东路口"
    },
    {
        "id": "20351",
        "device_id": "003T1381",
        "name": "丽园路",
        "lat": "31.2159",
        "lng": "121.494072",
        "address": "丽园路144号"
    },
    {
        "id": "20352",
        "device_id": "003T1299",
        "name": "怡丰大厦（灶）",
        "lat": "31.230747",
        "lng": "121.494379",
        "address": "河南南路298号"
    },
    {
        "id": "20353",
        "device_id": "003T3027",
        "name": "华美达和平大酒店",
        "lat": "31.20732",
        "lng": "121.481098",
        "address": "斜土路710号"
    },
    {
        "id": "20354",
        "device_id": "003T1063",
        "name": "古象大酒店",
        "lat": "31.240136",
        "lng": "121.486087",
        "address": "九江路595号"
    },
    {
        "id": "20355",
        "device_id": "003T1064",
        "name": "古象大酒店",
        "lat": "31.240136",
        "lng": "121.486087",
        "address": "九江路595号"
    },
    {
        "id": "20356",
        "device_id": "003T2142",
        "name": "上海金鹰国际购物广场",
        "lat": "31.23494",
        "lng": "121.461145",
        "address": "陕西北路278号"
    },
    {
        "id": "20357",
        "device_id": "003T2141",
        "name": "上海金鹰国际购物广场",
        "lat": "31.23494",
        "lng": "121.461145",
        "address": "陕西北路278号"
    },
    {
        "id": "20358",
        "device_id": "003T2011",
        "name": "上海湟普江房产经营有限公司",
        "lat": "31.235123",
        "lng": "121.465457",
        "address": "吴江路269号"
    },
    {
        "id": "20359",
        "device_id": "003T2098",
        "name": "成都路南京路口",
        "lat": "31.242777",
        "lng": "121.424488",
        "address": "成都路555号"
    },
    {
        "id": "20360",
        "device_id": "003T1320",
        "name": "香山中医医院",
        "lat": "31.221596",
        "lng": "121.472924",
        "address": "复兴中路528号"
    },
    {
        "id": "20361",
        "device_id": "003T2135",
        "name": "金叶大楼",
        "lat": "31.223224",
        "lng": "121.466518",
        "address": "淮海中路921号"
    },
    {
        "id": "20362",
        "device_id": "003T2134",
        "name": "金叶大楼",
        "lat": "31.223224",
        "lng": "121.466518",
        "address": "淮海中路921号"
    },
    {
        "id": "20363",
        "device_id": "003T2167",
        "name": "上海第一妇婴保健院",
        "lat": "31.226367",
        "lng": "121.462901",
        "address": "长乐路536号"
    },
    {
        "id": "20364",
        "device_id": "003T2050",
        "name": "贵都饭店",
        "lat": "31.22662",
        "lng": "121.451803",
        "address": "华山路228号"
    },
    {
        "id": "20365",
        "device_id": "003T2001",
        "name": "上海展览馆",
        "lat": "31.234532",
        "lng": "121.445192",
        "address": "延安中路1000号后门"
    },
    {
        "id": "20366",
        "device_id": "003T3023",
        "name": "园林大厦",
        "lat": "31.21498",
        "lng": "121.489363",
        "address": "制造局路130号"
    },
    {
        "id": "20367",
        "device_id": "003T1243",
        "name": "广东路20号",
        "lat": "31.240064",
        "lng": "121.497242",
        "address": "广东路20号"
    },
    {
        "id": "20368",
        "device_id": "003T1265",
        "name": "上海建懋商业投资管理有限公司",
        "lat": "31.240064",
        "lng": "121.497242",
        "address": "广东路20号"
    },
    {
        "id": "20369",
        "device_id": "003T1380",
        "name": "光明大楼",
        "lat": "31.237552",
        "lng": "121.499099",
        "address": "金陵东路2号"
    },
    {
        "id": "20370",
        "device_id": "003T1236",
        "name": "新城饭店",
        "lat": "31.24097",
        "lng": "121.494049",
        "address": "江西中路180号后门（福州路口）"
    },
    {
        "id": "20371",
        "device_id": "003T1338",
        "name": "新世界名品城（灶）",
        "lat": "31.244241",
        "lng": "121.492153",
        "address": "南京东路228号"
    },
    {
        "id": "20372",
        "device_id": "003T1339",
        "name": "新世界名品城（炉）",
        "lat": "31.244241",
        "lng": "121.492153",
        "address": "南京东路228号"
    },
    {
        "id": "20373",
        "device_id": "003T1259",
        "name": "金钟广场",
        "lat": "31.231834",
        "lng": "121.484931",
        "address": "龙门路金陵中路"
    },
    {
        "id": "20374",
        "device_id": "003T3016",
        "name": "巴士大厦",
        "lat": "31.216915",
        "lng": "121.479503",
        "address": "建国东路525号"
    },
    {
        "id": "20375",
        "device_id": "003T2127",
        "name": "上海静安区人民检察院（炉）",
        "lat": "31.237644",
        "lng": "121.440979",
        "address": "昌平路1036号"
    },
    {
        "id": "20376",
        "device_id": "003T2070",
        "name": "普陀区人民医院（炉）",
        "lat": "31.253129",
        "lng": "121.447628",
        "address": "澳门路江宁路"
    },
    {
        "id": "20377",
        "device_id": "003T3020",
        "name": "裕兴大厦",
        "lat": "31.203138",
        "lng": "121.476415",
        "address": "瑞金南路345号"
    },
    {
        "id": "20378",
        "device_id": "003T3018",
        "name": "上海科学技术学会",
        "lat": "31.223946",
        "lng": "121.473247",
        "address": "南昌路59号"
    },
    {
        "id": "20379",
        "device_id": "003T1234",
        "name": "中联商厦",
        "lat": "31.2429",
        "lng": "121.489755",
        "address": "南京东路340号"
    },
    {
        "id": "20380",
        "device_id": "003T1371",
        "name": "证大金融（炉）",
        "lat": "31.230535",
        "lng": "121.504096",
        "address": "中华路东门路路口"
    },
    {
        "id": "20381",
        "device_id": "003T1372",
        "name": "证大金融（灶）",
        "lat": "31.230535",
        "lng": "121.504096",
        "address": "中华路东门路路口"
    },
    {
        "id": "20382",
        "device_id": "003T3025",
        "name": "上海交通大学医学院",
        "lat": "31.218404",
        "lng": "121.478867",
        "address": "重庆南路227号"
    },
    {
        "id": "20383",
        "device_id": "003T1312",
        "name": "企业天地",
        "lat": "31.227059",
        "lng": "121.483459",
        "address": "崇德路顺昌路"
    },
    {
        "id": "20384",
        "device_id": "003T1311",
        "name": "企业天地",
        "lat": "31.227059",
        "lng": "121.483459",
        "address": "崇德路顺昌路"
    },
    {
        "id": "20385",
        "device_id": "003T2055",
        "name": "西康静体",
        "lat": "31.234171",
        "lng": "121.458302",
        "address": "西康路99号"
    },
    {
        "id": "20386",
        "device_id": "003T1245",
        "name": "上海中星集团有限公司",
        "lat": "31.233517",
        "lng": "121.491618",
        "address": "人民路833号"
    },
    {
        "id": "20387",
        "device_id": "003T1285",
        "name": "丽都大酒店",
        "lat": "31.239721",
        "lng": "121.484315",
        "address": "汉口路678号"
    },
    {
        "id": "20388",
        "device_id": "003T1314",
        "name": "曙光医院",
        "lat": "31.228865",
        "lng": "121.486081",
        "address": "普安路185号"
    },
    {
        "id": "20389",
        "device_id": "003T1166",
        "name": "老饭店",
        "lat": "31.233332",
        "lng": "121.497308",
        "address": "福佑路242号"
    },
    {
        "id": "20390",
        "device_id": "003T1222",
        "name": "益丰外滩源",
        "lat": "31.246003",
        "lng": "121.495639",
        "address": "圆明园路88号"
    },
    {
        "id": "20391",
        "device_id": "003T1133",
        "name": "复旦大学附属妇产科医院",
        "lat": "31.265435",
        "lng": "121.540703",
        "address": "方斜路419号"
    },
    {
        "id": "20392",
        "device_id": "003T3034",
        "name": "上海礼兴酒店",
        "lat": "31.223673",
        "lng": "121.480887",
        "address": "马当路88号（嵩山路兴安路）"
    },
    {
        "id": "20393",
        "device_id": "003T3033",
        "name": "上海礼兴酒店",
        "lat": "31.223673",
        "lng": "121.480887",
        "address": "马当路88号（嵩山路兴安路）"
    },
    {
        "id": "20394",
        "device_id": "003T1002",
        "name": "上海书城",
        "lat": "31.239149",
        "lng": "121.488032",
        "address": "湖北路136号"
    },
    {
        "id": "20395",
        "device_id": "003T1189",
        "name": "上海体育俱乐部",
        "lat": "31.203972",
        "lng": "121.431867",
        "address": "南京西路150号后门"
    },
    {
        "id": "20396",
        "device_id": "003T1113",
        "name": "国际饭店（二楼）",
        "lat": "31.239692",
        "lng": "121.477867",
        "address": "黄河路28号"
    },
    {
        "id": "20397",
        "device_id": "003T1112",
        "name": "国际饭店（二楼）",
        "lat": "31.239692",
        "lng": "121.477867",
        "address": "黄河路28号"
    },
    {
        "id": "20398",
        "device_id": "003T1206",
        "name": "上海杏花楼股份有限公司鸿翔分公司",
        "lat": "31.239644",
        "lng": "121.477509",
        "address": "黄河路21号"
    },
    {
        "id": "20399",
        "device_id": "003T2137",
        "name": "九百城市广场",
        "lat": "31.224759",
        "lng": "121.429558",
        "address": "愚园路135"
    },
    {
        "id": "20400",
        "device_id": "003T2122",
        "name": "恒隆广场2号楼",
        "lat": "31.234179",
        "lng": "121.459409",
        "address": "南京西路1366号"
    },
    {
        "id": "20401",
        "device_id": "003T2123",
        "name": "恒隆广场2号楼",
        "lat": "31.234179",
        "lng": "121.459409",
        "address": "南京西路1366号"
    },
    {
        "id": "20402",
        "device_id": "003T2120",
        "name": "上海文化大厦",
        "lat": "31.240246",
        "lng": "121.456807",
        "address": "江宁路500号"
    },
    {
        "id": "20403",
        "device_id": "003T2012",
        "name": "上海通利杰生房地产有限公司",
        "lat": "31.235815",
        "lng": "121.465579",
        "address": "南京西路969号"
    },
    {
        "id": "20404",
        "device_id": "003T1274",
        "name": "色织三厂",
        "lat": "31.208361",
        "lng": "121.48961",
        "address": "汝南街63号"
    },
    {
        "id": "20405",
        "device_id": "003T1342",
        "name": "东方饭店",
        "lat": "31.237525",
        "lng": "121.499474",
        "address": "金陵东路1号"
    },
    {
        "id": "20406",
        "device_id": "003T1341",
        "name": "东方饭店",
        "lat": "31.237525",
        "lng": "121.499474",
        "address": "金陵东路1号"
    },
    {
        "id": "20407",
        "device_id": "003T1327",
        "name": "香港广场",
        "lat": "31.229107",
        "lng": "121.481557",
        "address": "淮海中路黄陂南路被"
    },
    {
        "id": "20408",
        "device_id": "003T1157",
        "name": "豫安阁商厦",
        "lat": "31.231252",
        "lng": "121.49947",
        "address": "方浜中路235号"
    },
    {
        "id": "20409",
        "device_id": "003T1346",
        "name": "复兴广场",
        "lat": "31.224721",
        "lng": "121.489361",
        "address": "成都路复兴路"
    },
    {
        "id": "20410",
        "device_id": "003T1161",
        "name": "扬子饭店",
        "lat": "31.239332",
        "lng": "121.482976",
        "address": "汉口路740号"
    },
    {
        "id": "20411",
        "device_id": "003T1160",
        "name": "扬子饭店",
        "lat": "31.239332",
        "lng": "121.482976",
        "address": "汉口路740号"
    },
    {
        "id": "20412",
        "device_id": "003T1322",
        "name": "解放日报",
        "lat": "31.241101",
        "lng": "121.489776",
        "address": "山东中路汉口路南"
    },
    {
        "id": "20413",
        "device_id": "003T1363",
        "name": "长征医院",
        "lat": "31.239389",
        "lng": "121.474701",
        "address": "凤阳路428号"
    },
    {
        "id": "20414",
        "device_id": "003T1268",
        "name": "上海吴宫大酒店",
        "lat": "31.239304",
        "lng": "121.488961",
        "address": "福州路431号"
    },
    {
        "id": "20415",
        "device_id": "003T1155",
        "name": "东海大厦",
        "lat": "31.242594",
        "lng": "121.489956",
        "address": "南京东路353号"
    },
    {
        "id": "20416",
        "device_id": "003T3026",
        "name": "国信广场",
        "lat": "31.215849",
        "lng": "121.477338",
        "address": "建国中路29号"
    },
    {
        "id": "20417",
        "device_id": "003T1378",
        "name": "上海骏兴房地产开发有限公司",
        "lat": "31.222613",
        "lng": "121.486617",
        "address": "济南路260弄"
    },
    {
        "id": "20418",
        "device_id": "003T2158",
        "name": "汇丽花园",
        "lat": "31.245173",
        "lng": "121.434286",
        "address": "长寿路822弄45支弄20号对面"
    },
    {
        "id": "20419",
        "device_id": "003T1376",
        "name": "上海交通大学医学院",
        "lat": "31.206474",
        "lng": "121.449564",
        "address": "思南路建国路"
    },
    {
        "id": "20420",
        "device_id": "003T2159",
        "name": "西康路1068号",
        "lat": "31.247795",
        "lng": "121.447785",
        "address": "西康路1068号"
    },
    {
        "id": "20421",
        "device_id": "003T1389",
        "name": "学府路59号四排楼路进",
        "lat": "30.745621",
        "lng": "121.323909",
        "address": "学府路59号四排楼路进"
    },
    {
        "id": "20422",
        "device_id": "000T1307",
        "name": "厦门路2",
        "lat": "31.239205",
        "lng": "121.48884",
        "address": "福建中路195号"
    },
    {
        "id": "20423",
        "device_id": "003T1042",
        "name": "上海绿苑大酒店",
        "lat": "31.230315",
        "lng": "121.505531",
        "address": "外咸瓜街39号"
    },
    {
        "id": "20424",
        "device_id": "003T1043",
        "name": "上海绿苑大酒店",
        "lat": "31.230315",
        "lng": "121.505531",
        "address": "外咸瓜街40号"
    },
    {
        "id": "20425",
        "device_id": "003T1392",
        "name": "中山南路119号",
        "lat": "31.012482",
        "lng": "121.240198",
        "address": "中山南路119号"
    },
    {
        "id": "20426",
        "device_id": "003T1397",
        "name": "上海乾鹏置业公司",
        "lat": "31.234873",
        "lng": "121.498202",
        "address": "人民路399号福民街24号对面www"
    },
    {
        "id": "20427",
        "device_id": "003T1394",
        "name": "外马路，老太平弄",
        "lat": "31.224516",
        "lng": "121.512585",
        "address": "中山南路109号"
    },
    {
        "id": "20428",
        "device_id": "003T1393",
        "name": "外马路老太平弄",
        "lat": "31.229902",
        "lng": "121.509043",
        "address": "中山南跑109号"
    },
    {
        "id": "20429",
        "device_id": "003T1145",
        "name": "中山南路909号",
        "lat": "31.218239",
        "lng": "121.51299",
        "address": "中山南路909号"
    },
    {
        "id": "20430",
        "device_id": "003T1396",
        "name": "泛海国际公寓一期",
        "lat": "31.223915",
        "lng": "121.505768",
        "address": "中华路518弄"
    },
    {
        "id": "20431",
        "device_id": "003T1374",
        "name": "黄浦区教师进修学院附属中山学校",
        "lat": "31.200534",
        "lng": "121.483712",
        "address": "龙华东路519号"
    },
    {
        "id": "20432",
        "device_id": "003T1373",
        "name": "黄浦区教师进修学院附属中山学校",
        "lat": "31.200534",
        "lng": "121.483712",
        "address": "龙华中路519号"
    },
    {
        "id": "20435",
        "device_id": "003T1402",
        "name": "南车站路国货路",
        "lat": "31.215781",
        "lng": "121.4983",
        "address": "南车站路169弄"
    },
    {
        "id": "20436",
        "device_id": "003T1114",
        "name": "金门大酒店",
        "lat": "31.240303",
        "lng": "121.47905",
        "address": "南京西跑108号新世界停车场进50米门卫旁"
    },
    {
        "id": "21040",
        "device_id": "003T2157",
        "name": "梅龙镇广场",
        "lat": "31.234471",
        "lng": "121.463026",
        "address": "南京西路江宁路"
    },
    {
        "id": "21041",
        "device_id": "003T2148",
        "name": "江宁奉贤",
        "lat": "31.235398",
        "lng": "121.462291",
        "address": "奉贤路江宁路口"
    },
    {
        "id": "21045",
        "device_id": "003T1336",
        "name": "统战大楼",
        "lat": "31.208789",
        "lng": "121.455559",
        "address": "延安路江西路口花坛里"
    },
    {
        "id": "27258",
        "device_id": "003T1127",
        "name": "新世界",
        "lat": "31.238545",
        "lng": "121.475359",
        "address": "凤阳路150号"
    },
    {
        "id": "27259",
        "device_id": "003T1132",
        "name": "黄浦体育",
        "lat": "31.239411",
        "lng": "121.491344",
        "address": "山东中路4号"
    },
    {
        "id": "27260",
        "device_id": "003T1192",
        "name": "洛克菲勒",
        "lat": "31.226476",
        "lng": "121.440757",
        "address": "圆明园路146号"
    },
    {
        "id": "27261",
        "device_id": "003T1193",
        "name": "洛克菲勒",
        "lat": "31.226476",
        "lng": "121.440757",
        "address": "圆明园路146号"
    },
    {
        "id": "27262",
        "device_id": "003T1194",
        "name": "上海源",
        "lat": "31.248",
        "lng": "121.495565",
        "address": "中山东一路33号"
    },
    {
        "id": "27263",
        "device_id": "003T1200",
        "name": "外滩源",
        "lat": "31.248",
        "lng": "121.495565",
        "address": "中山东一路33号"
    },
    {
        "id": "27264",
        "device_id": "003T2003",
        "name": "巨鹿大厦",
        "lat": "31.224227",
        "lng": "121.453573",
        "address": "巨鹿路915号常熟路口"
    },
    {
        "id": "27265",
        "device_id": "003T2004",
        "name": "鼎固",
        "lat": "31.224505",
        "lng": "121.454125",
        "address": "华山路322号"
    },
    {
        "id": "27266",
        "device_id": "003T2005",
        "name": "鼎固",
        "lat": "31.396479",
        "lng": "121.245067",
        "address": "华山路322号"
    },
    {
        "id": "27267",
        "device_id": "003T2018",
        "name": "会德丰",
        "lat": "31.228038",
        "lng": "121.451287",
        "address": "南京西路1717号"
    },
    {
        "id": "27268",
        "device_id": "003T2019",
        "name": "会德丰",
        "lat": "31.228038",
        "lng": "121.451287",
        "address": "南京西路1717号"
    },
    {
        "id": "27269",
        "device_id": "003T1251",
        "name": "国货路普育东路",
        "lat": "31.213531",
        "lng": "121.501804",
        "address": "普育东路200弄"
    },
    {
        "id": "27271",
        "device_id": "003T1046",
        "name": "东银大厦",
        "lat": "31.237907",
        "lng": "121.486254",
        "address": "浙江中路137号"
    },
    {
        "id": "27273",
        "device_id": "003T1058",
        "name": "外滩金融",
        "lat": "31.238294",
        "lng": "121.49421",
        "address": "延安东路222号"
    },
    {
        "id": "27274",
        "device_id": "003T1073",
        "name": "来福士",
        "lat": "31.238312",
        "lng": "121.483093",
        "address": "福州路728号"
    },
    {
        "id": "27275",
        "device_id": "003T1110",
        "name": "新世界",
        "lat": "31.238545",
        "lng": "121.475359",
        "address": "凤阳路150号"
    },
    {
        "id": "27276",
        "device_id": "003T1111",
        "name": "新世界",
        "lat": "31.238545",
        "lng": "121.475359",
        "address": "凤阳路150号"
    },
    {
        "id": "27277",
        "device_id": "003T1126",
        "name": "新世界",
        "lat": "31.238545",
        "lng": "121.475359",
        "address": "凤阳路150号"
    },
    {
        "id": "27278",
        "device_id": "003T1037",
        "name": "仙乐斯",
        "lat": "31.237406",
        "lng": "121.476162",
        "address": "南京西路338号"
    },
    {
        "id": "27279",
        "device_id": "003T2090",
        "name": "威海电视台",
        "lat": "31.233524",
        "lng": "121.471606",
        "address": "威海路青海路"
    },
    {
        "id": "27280",
        "device_id": "003T1365",
        "name": "玖海实业公司",
        "lat": "31.224298",
        "lng": "121.465315",
        "address": "陕西南路85号"
    },
    {
        "id": "27281",
        "device_id": "003T1239",
        "name": "美欣大厦",
        "lat": "31.247618",
        "lng": "121.490476",
        "address": "南苏州河路"
    },
    {
        "id": "27282",
        "device_id": "003T1276",
        "name": "保屯路288弄",
        "lat": "31.206843",
        "lng": "121.499748",
        "address": "保屯路288弄"
    },
    {
        "id": "27283",
        "device_id": "003T1277",
        "name": "保屯路288弄",
        "lat": "31.206843",
        "lng": "121.499748",
        "address": "保屯路288弄"
    },
    {
        "id": "27284",
        "device_id": "003T1401",
        "name": "马当路430号",
        "lat": "31.219442",
        "lng": "121.481899",
        "address": "马当路430号"
    },
    {
        "id": "27285",
        "device_id": "003T1278",
        "name": "淡水复兴",
        "lat": "31.220073",
        "lng": "121.480173",
        "address": "淡水路合肥路口"
    },
    {
        "id": "27286",
        "device_id": "003T1308",
        "name": "置地广场",
        "lat": "31.24277",
        "lng": "121.485551",
        "address": "九江路394号近山西南路"
    },
    {
        "id": "27287",
        "device_id": "003T1138",
        "name": "金豫商厦",
        "lat": "31.230601",
        "lng": "121.498054",
        "address": "方浜中路280号"
    },
    {
        "id": "27288",
        "device_id": "003T1154",
        "name": "浦东发展银行",
        "lat": "31.244041",
        "lng": "121.483901",
        "address": "北京东路689号"
    },
    {
        "id": "27289",
        "device_id": "003T1169",
        "name": "黄浦分局",
        "lat": "31.205123",
        "lng": "121.487602",
        "address": "云南中路238弄3号"
    },
    {
        "id": "27290",
        "device_id": "003T1184",
        "name": "和平饭店",
        "lat": "31.244819",
        "lng": "121.495665",
        "address": "南京东路20号"
    },
    {
        "id": "27291",
        "device_id": "003T1185",
        "name": "和平饭店",
        "lat": "31.244819",
        "lng": "121.495665",
        "address": "南京东路20号"
    },
    {
        "id": "27292",
        "device_id": "003T1197",
        "name": "上海新联谊大厦",
        "lat": "31.249105",
        "lng": "121.492449",
        "address": "广东路四川中路"
    },
    {
        "id": "27293",
        "device_id": "003T1198",
        "name": "上海新联谊大厦",
        "lat": "31.249105",
        "lng": "121.492449",
        "address": "广东路四川中路"
    },
    {
        "id": "27294",
        "device_id": "003T1209",
        "name": "黄浦众鑫城",
        "lat": "31.225719",
        "lng": "121.489413",
        "address": "西藏南路555弄"
    },
    {
        "id": "27295",
        "device_id": "003T1210",
        "name": "中福房产置业公司",
        "lat": "31.30264",
        "lng": "121.160153",
        "address": "汉口路616号"
    },
    {
        "id": "27296",
        "device_id": "003T1211",
        "name": "中福房产置业公司",
        "lat": "31.30264",
        "lng": "121.160153",
        "address": "汉口路616号"
    },
    {
        "id": "27297",
        "device_id": "003T1212",
        "name": "多福广场",
        "lat": "31.236887",
        "lng": "121.484195",
        "address": "西藏中路168号"
    },
    {
        "id": "27298",
        "device_id": "003T1221",
        "name": "海通证券大厦",
        "lat": "31.231356",
        "lng": "121.487761",
        "address": "云南中路91号对面"
    },
    {
        "id": "27299",
        "device_id": "003T1407",
        "name": "人民广场",
        "lat": "31.233594",
        "lng": "121.478668",
        "address": "靠武胜路（中间的房间）"
    },
    {
        "id": "27300",
        "device_id": "003T1228",
        "name": "金帆大厦",
        "lat": "31.233589",
        "lng": "121.478891",
        "address": "大沽路100号（武胜路黄陂路口）"
    },
    {
        "id": "27301",
        "device_id": "003T1229",
        "name": "金帆大厦",
        "lat": "31.233589",
        "lng": "121.478891",
        "address": "大沽路100号（武胜路黄陂路口）"
    },
    {
        "id": "27302",
        "device_id": "003T1231",
        "name": "老正兴菜馆",
        "lat": "31.238558",
        "lng": "121.486767",
        "address": "福州路555号"
    },
    {
        "id": "27303",
        "device_id": "003T3019",
        "name": "瑞金医院",
        "lat": "31.216441",
        "lng": "121.475602",
        "address": "思南路72号"
    },
    {
        "id": "27304",
        "device_id": "003T3049",
        "name": "瑞金医院",
        "lat": "31.216441",
        "lng": "121.475602",
        "address": "思南路72号"
    },
    {
        "id": "27305",
        "device_id": "003T1244",
        "name": "杏花楼酒家",
        "lat": "31.239752",
        "lng": "121.490297",
        "address": "福州路343号"
    },
    {
        "id": "27306",
        "device_id": "003T2093",
        "name": "北京俏江南",
        "lat": "31.229153",
        "lng": "121.45991",
        "address": "延安中路881号"
    },
    {
        "id": "27307",
        "device_id": "003T2023",
        "name": "世纪静安",
        "lat": "31.228881",
        "lng": "121.450139",
        "address": "南京西路1788号"
    },
    {
        "id": "27308",
        "device_id": "003T2024",
        "name": "世纪静安",
        "lat": "31.228881",
        "lng": "121.450139",
        "address": "南京西路1788号"
    },
    {
        "id": "27309",
        "device_id": "003T2033",
        "name": "吉臣酒店",
        "lat": "31.234122",
        "lng": "121.436456",
        "address": "万航渡路810-838号"
    },
    {
        "id": "27310",
        "device_id": "003T1343",
        "name": "外滩英迪格酒店",
        "lat": "31.23203",
        "lng": "121.506483",
        "address": "中山东二路585号近东门路"
    },
    {
        "id": "27311",
        "device_id": "003T1344",
        "name": "外滩英迪格酒店",
        "lat": "31.23203",
        "lng": "121.506483",
        "address": "中山东二路585号近东门路"
    },
    {
        "id": "37315",
        "device_id": "003T2115",
        "name": "上海希尔顿大酒店",
        "lat": "31.225664",
        "lng": "121.451728",
        "address": "华山路250号"
    },
    {
        "id": "37316",
        "device_id": "003T2061",
        "name": "上海静安香格里拉大酒店",
        "lat": "31.229335",
        "lng": "121.456988",
        "address": "南京西路1559号"
    },
    {
        "id": "37317",
        "device_id": "003T2054",
        "name": "上海静安香格里拉大酒店",
        "lat": "31.229335",
        "lng": "121.456988",
        "address": "南京西路1559号"
    },
    {
        "id": "37318",
        "device_id": "003T2052",
        "name": "上海静安香格里拉大酒店",
        "lat": "31.229335",
        "lng": "121.456988",
        "address": "南京西路1559号"
    },
    {
        "id": "37319",
        "device_id": "003T1291",
        "name": "上海豫园大酒店",
        "lat": "31.233252",
        "lng": "121.494585",
        "address": "河南南路159号"
    },
    {
        "id": "37320",
        "device_id": "003T1292",
        "name": "上海豫园大酒店",
        "lat": "31.233252",
        "lng": "121.494585",
        "address": "河南南路159号"
    },
    {
        "id": "37321",
        "device_id": "003T3010",
        "name": "上海斯格威铂尔曼大酒店",
        "lat": "31.213598",
        "lng": "121.474671",
        "address": "打浦路53号"
    },
    {
        "id": "37322",
        "device_id": "003T3011",
        "name": "上海斯格威铂尔曼大酒店",
        "lat": "31.213598",
        "lng": "121.474671",
        "address": "打浦路53号"
    },
    {
        "id": "37324",
        "device_id": "003T2017",
        "name": "上海锦江饭店",
        "lat": "31.226146",
        "lng": "121.467737",
        "address": "茂名南路59号"
    },
    {
        "id": "37325",
        "device_id": "003T1332",
        "name": "瑞金宾馆",
        "lat": "31.220191",
        "lng": "121.471351",
        "address": "复兴中路593号"
    },
    {
        "id": "37326",
        "device_id": "003T2129",
        "name": "静安区中心医院",
        "lat": "31.237016",
        "lng": "121.456249",
        "address": "西康路259号"
    },
    {
        "id": "37327",
        "device_id": "003T2119",
        "name": "上海市儿童医院",
        "lat": "31.236207",
        "lng": "121.454733",
        "address": "北京西路1400弄"
    },
    {
        "id": "37328",
        "device_id": "003T2020",
        "name": "百乐门大酒店",
        "lat": "31.228883",
        "lng": "121.451163",
        "address": "南京西路1730号"
    },
    {
        "id": "37329",
        "device_id": "003T2021",
        "name": "百乐门大酒店",
        "lat": "31.228883",
        "lng": "121.451163",
        "address": "南京西路1730号"
    },
    {
        "id": "37330",
        "device_id": "003T1283",
        "name": "香港广场",
        "lat": "31.228842",
        "lng": "121.481679",
        "address": "淮海中路283号"
    },
    {
        "id": "37331",
        "device_id": "003T1284",
        "name": "香港广场",
        "lat": "31.228842",
        "lng": "121.481679",
        "address": "淮海中路283号"
    },
    {
        "id": "37332",
        "device_id": "003T1282",
        "name": "金钟广场",
        "lat": "31.231519",
        "lng": "121.485636",
        "address": "淮海中路98号"
    },
    {
        "id": "37333",
        "device_id": "003T1223",
        "name": "美华大厦",
        "lat": "31.244777",
        "lng": "121.479639",
        "address": "西藏路厦门路"
    },
    {
        "id": "37334",
        "device_id": "003T1224",
        "name": "美华大厦",
        "lat": "31.244777",
        "lng": "121.479639",
        "address": "西藏路厦门路"
    },
    {
        "id": "37335",
        "device_id": "003T1240",
        "name": "美欣大厦",
        "lat": "31.245758",
        "lng": "121.47963",
        "address": "西藏中路728号"
    },
    {
        "id": "37336",
        "device_id": "003T1288",
        "name": "港陆广场",
        "lat": "31.242715",
        "lng": "121.48173",
        "address": "牛庄路809号"
    },
    {
        "id": "37337",
        "device_id": "003T1323",
        "name": "盛平房产",
        "lat": "31.233486",
        "lng": "121.499221",
        "address": "福佑路安仁街"
    },
    {
        "id": "37338",
        "device_id": "003T1293",
        "name": "福佑路小商品市场",
        "lat": "31.233419",
        "lng": "121.494207",
        "address": "福佑路"
    },
    {
        "id": "37339",
        "device_id": "003T1301",
        "name": "方浜路大方路",
        "lat": "31.226713",
        "lng": "121.488266",
        "address": "方浜路大方路"
    },
    {
        "id": "37340",
        "device_id": "003T1230",
        "name": "解放报社",
        "lat": "31.24338",
        "lng": "121.487772",
        "address": "山东中路311号斜对面"
    },
    {
        "id": "37341",
        "device_id": "003T1214",
        "name": "海伦宾馆",
        "lat": "31.241278",
        "lng": "121.488253",
        "address": "九江路505号对面"
    },
    {
        "id": "37342",
        "device_id": "003T1306",
        "name": "农业银行",
        "lat": "31.228836",
        "lng": "121.449071",
        "address": "北海路（福建路和湖海路中间）"
    },
    {
        "id": "37343",
        "device_id": "003T1297",
        "name": "大沽路",
        "lat": "31.232675",
        "lng": "121.478548",
        "address": "大沽路"
    },
    {
        "id": "37344",
        "device_id": "003T1135",
        "name": "格致中学",
        "lat": "31.235514",
        "lng": "121.486621",
        "address": "广东路广西路"
    },
    {
        "id": "37345",
        "device_id": "003T1281",
        "name": "兴力浦房产公司",
        "lat": "31.035879",
        "lng": "121.740949",
        "address": "汉口路130号对面，四川路不到马路边"
    },
    {
        "id": "37346",
        "device_id": "003T1260",
        "name": "淮海警署",
        "lat": "31.229166",
        "lng": "121.484777",
        "address": "淮海警署"
    },
    {
        "id": "37347",
        "device_id": "003T1313",
        "name": "曙光医院",
        "lat": "31.327143",
        "lng": "121.544091",
        "address": "市光医院"
    },
    {
        "id": "37350",
        "device_id": "003T1280",
        "name": "露香苑",
        "lat": "31.233279",
        "lng": "121.500578",
        "address": "露香园路人民路近老城隍庙"
    },
    {
        "id": "37351",
        "device_id": "003T1309",
        "name": "中山南路陆家浜路",
        "lat": "31.214924",
        "lng": "121.507736",
        "address": "中山南路陆家浜路"
    },
    {
        "id": "37352",
        "device_id": "003T1310",
        "name": "中山南路陆家浜路",
        "lat": "31.214924",
        "lng": "121.507736",
        "address": "中山南路陆家浜路"
    },
    {
        "id": "37353",
        "device_id": "003T1010",
        "name": "五芳斋点心店",
        "lat": "31.241374",
        "lng": "121.497127",
        "address": "四川路福州路"
    },
    {
        "id": "37354",
        "device_id": "003T1011",
        "name": "黄埔区中心医院",
        "lat": "31.239583",
        "lng": "121.495953",
        "address": "四川路广东路"
    },
    {
        "id": "37355",
        "device_id": "003T1013",
        "name": "群力草药店",
        "lat": "31.241374",
        "lng": "121.497127",
        "address": "福州路"
    },
    {
        "id": "37356",
        "device_id": "003T1014",
        "name": "老半斋酒楼",
        "lat": "31.238651",
        "lng": "121.486039",
        "address": "福州路浙江路口"
    },
    {
        "id": "37357",
        "device_id": "003T1015",
        "name": "王宝和酒家",
        "lat": "31.238267",
        "lng": "121.485979",
        "address": "浙江中路167号"
    },
    {
        "id": "37358",
        "device_id": "003T1016",
        "name": "解放日报报社",
        "lat": "31.241899",
        "lng": "121.49128",
        "address": "汉口路300号"
    },
    {
        "id": "37359",
        "device_id": "003T1033",
        "name": "南新雅饮食城",
        "lat": "31.240897",
        "lng": "121.483441",
        "address": "南京东路719号"
    },
    {
        "id": "37360",
        "device_id": "003T1070",
        "name": "上海新亚丽晶大厦",
        "lat": "31.227206",
        "lng": "121.510734",
        "address": "中山南路315号"
    },
    {
        "id": "37361",
        "device_id": "003T1071",
        "name": "紫霞幼儿园",
        "lat": "31.22758",
        "lng": "121.505164",
        "address": "中华路195号"
    },
    {
        "id": "37362",
        "device_id": "003T1255",
        "name": "埃力生国际大厦",
        "lat": "31.233227",
        "lng": "121.50197",
        "address": "福佑路8号"
    },
    {
        "id": "37363",
        "device_id": "003T1077",
        "name": "建筑装饰总公司",
        "lat": "31.240484",
        "lng": "121.497952",
        "address": "广东路17号"
    },
    {
        "id": "37364",
        "device_id": "003T1081",
        "name": "建筑装饰总公司",
        "lat": "31.240484",
        "lng": "121.497952",
        "address": "广东路17号"
    },
    {
        "id": "37365",
        "device_id": "003T1087",
        "name": "新源广场",
        "lat": "31.226591",
        "lng": "121.508385",
        "address": "中山南路268号（豆市街4号对面）"
    },
    {
        "id": "37366",
        "device_id": "003T1107",
        "name": "久事大厦",
        "lat": "31.23067",
        "lng": "121.506309",
        "address": "中山南路28号"
    },
    {
        "id": "37367",
        "device_id": "003T1116",
        "name": "上海乔家栅龙云店",
        "lat": "31.22631",
        "lng": "121.50543",
        "address": "中华路297号"
    },
    {
        "id": "37368",
        "device_id": "003T1151",
        "name": "上海石浦人家餐饮管理有限公司",
        "lat": "31.218431",
        "lng": "121.513372",
        "address": "中山南路891号"
    },
    {
        "id": "37369",
        "device_id": "003T1152",
        "name": "中国石油",
        "lat": "31.24567",
        "lng": "121.495505",
        "address": "中山东一路24号C甲"
    },
    {
        "id": "37370",
        "device_id": "003T1156",
        "name": "上海市消防局",
        "lat": "31.224232",
        "lng": "121.417799",
        "address": "中山南路333号"
    },
    {
        "id": "37371",
        "device_id": "003T1172",
        "name": "香灵阁小吃店",
        "lat": "31.23942",
        "lng": "121.484608",
        "address": "汉口路653号"
    },
    {
        "id": "37372",
        "device_id": "003T1174",
        "name": "上海自来水市南管线管理所",
        "lat": "31.214871",
        "lng": "121.49959",
        "address": "半淞园路357号"
    },
    {
        "id": "37373",
        "device_id": "003T1218",
        "name": "上海滩商厦",
        "lat": "31.235673",
        "lng": "121.498465",
        "address": "人民路388号"
    },
    {
        "id": "37374",
        "device_id": "003T1246",
        "name": "小绍兴配餐公司",
        "lat": "31.229119",
        "lng": "121.504641",
        "address": "中华路97号旁"
    },
    {
        "id": "37375",
        "device_id": "003T1250",
        "name": "上海慈修庵",
        "lat": "31.229517",
        "lng": "121.49318",
        "address": "秦苓街15号近方滨中路"
    },
    {
        "id": "37376",
        "device_id": "003T1252",
        "name": "光明初级中学",
        "lat": "31.230187",
        "lng": "121.498878",
        "address": "三牌楼路"
    },
    {
        "id": "37377",
        "device_id": "003T1258",
        "name": "上海儿童艺术剧院",
        "lat": "31.203351",
        "lng": "121.498946",
        "address": "苗江路龙华东路"
    },
    {
        "id": "37378",
        "device_id": "003T1261",
        "name": "光明小学",
        "lat": "31.229114",
        "lng": "121.500333",
        "address": "盛家街40号"
    },
    {
        "id": "37379",
        "device_id": "003T1298",
        "name": "明天广场",
        "lat": "31.236866",
        "lng": "121.475321",
        "address": "南京西路389号"
    },
    {
        "id": "37380",
        "device_id": "003T1304",
        "name": "黄浦区第一中心小学",
        "lat": "31.225602",
        "lng": "121.508988",
        "address": "豆市街20号"
    },
    {
        "id": "37381",
        "device_id": "003T1333",
        "name": "上海市市八初级中学",
        "lat": "31.222716",
        "lng": "121.482198",
        "address": "复兴东路123号"
    },
    {
        "id": "37382",
        "device_id": "003T1348",
        "name": "外滩SOHO",
        "lat": "31.23582",
        "lng": "121.501246",
        "address": "人民路292号"
    },
    {
        "id": "37383",
        "device_id": "003T1349",
        "name": "外滩SOHO",
        "lat": "31.23582",
        "lng": "121.501246",
        "address": "人民路292号"
    },
    {
        "id": "37384",
        "device_id": "003T2029",
        "name": "安远路大众美林阁",
        "lat": "31.218868",
        "lng": "121.436341",
        "address": "安远路674号"
    },
    {
        "id": "37385",
        "device_id": "003T2031",
        "name": "西部俊园",
        "lat": "31.24047",
        "lng": "121.450587",
        "address": "安远路800号旁"
    },
    {
        "id": "37386",
        "device_id": "003T2068",
        "name": "友力国际大厦",
        "lat": "31.250155",
        "lng": "121.450802",
        "address": "江宁路1158号"
    },
    {
        "id": "37387",
        "device_id": "003T2071",
        "name": "陕西北路澳门路",
        "lat": "31.252293",
        "lng": "121.445363",
        "address": "陕西北路1688号"
    },
    {
        "id": "37388",
        "device_id": "003T2073",
        "name": "东方罗玛浴场",
        "lat": "31.253677",
        "lng": "121.447562",
        "address": "江宁路1420号"
    },
    {
        "id": "37389",
        "device_id": "003T2007",
        "name": "华山医院",
        "lat": "31.222414",
        "lng": "121.449287",
        "address": "乌鲁木齐中路12号"
    },
    {
        "id": "37390",
        "device_id": "003T2009",
        "name": "展览中心",
        "lat": "31.231076",
        "lng": "121.458174",
        "address": "延安中路1000号"
    },
    {
        "id": "37391",
        "device_id": "003T2010",
        "name": "静安时代广场",
        "lat": "31.23637",
        "lng": "121.466632",
        "address": "吴江路188号"
    },
    {
        "id": "37392",
        "device_id": "003T2022",
        "name": "华东医院",
        "lat": "31.224851",
        "lng": "121.447897",
        "address": "延安西路221号"
    },
    {
        "id": "37393",
        "device_id": "003T2116",
        "name": "上海科技馆",
        "lat": "31.241385",
        "lng": "121.468283",
        "address": "山海关路慈溪路"
    },
    {
        "id": "37394",
        "device_id": "003T2121",
        "name": "南证大厦",
        "lat": "31.238264",
        "lng": "121.472305",
        "address": "南京西路280号"
    },
    {
        "id": "37395",
        "device_id": "003T2124",
        "name": "协和城",
        "lat": "31.228067",
        "lng": "121.44839",
        "address": "永源路100号"
    },
    {
        "id": "37396",
        "device_id": "003T2144",
        "name": "金富得商业广场",
        "lat": "31.234885",
        "lng": "121.460973",
        "address": "陕西北路288号"
    },
    {
        "id": "37397",
        "device_id": "003T1273",
        "name": "弘胜地产",
        "lat": "31.220073",
        "lng": "121.480173",
        "address": "淡水路合肥路"
    },
    {
        "id": "37398",
        "device_id": "003T1318",
        "name": "新金仕宝",
        "lat": "31.215477",
        "lng": "121.482146",
        "address": "马当路588弄"
    },
    {
        "id": "37399",
        "device_id": "003T1334",
        "name": "上海城建投资开发总公司",
        "lat": "31.217716",
        "lng": "121.470586",
        "address": "永嘉路18号"
    },
    {
        "id": "37400",
        "device_id": "003T1335",
        "name": "上海城建投资总公司",
        "lat": "31.217716",
        "lng": "121.470586",
        "address": "永嘉路18号"
    },
    {
        "id": "37401",
        "device_id": "003T1337",
        "name": "绿地卢湾917",
        "lat": "31.151427",
        "lng": "121.152259",
        "address": "龙华东路917号"
    },
    {
        "id": "37402",
        "device_id": "003T1391",
        "name": "中山南路119号",
        "lat": "31.225795",
        "lng": "121.512553",
        "address": "复兴东路，外马路口"
    }
]